{"destination": [{"address_components": [{"long_name": "S\u1ed1 1", "short_name": "S\u1ed1 1", "types": ["street_number"]}, {"long_name": "\u0110\u01b0\u1eddng H\u1eefu Ngh\u1ecb", "short_name": "\u0110\u01b0\u1eddng H\u1eefu Ngh\u1ecb", "types": ["route"]}, {"long_name": "Th\u1ecb x\u00e3 T\u1eeb S\u01a1n", "short_name": "Tx. T\u1eeb S\u01a1n", "types": ["locality", "political"]}, {"long_name": "B\u1eafc Ninh", "short_name": "B\u1eafc Ninh", "types": ["administrative_area_level_1", "political"]}, {"long_name": "Vietnam", "short_name": "VN", "types": ["country", "political"]}], "formatted_address": "S\u1ed1 1 \u0110\u01b0\u1eddng H\u1eefu Ngh\u1ecb, Ph\u00f9 Ch\u1ea9n, T\u1eeb S\u01a1n, B\u1eafc Ninh, Vietnam", "geometry": {"location": {"lat": 21.0782946, "lng": 105.967074}, "location_type": "ROOFTOP", "viewport": {"northeast": {"lat": 21.0796435802915, "lng": 105.9684229802915}, "southwest": {"lat": 21.0769456197085, "lng": 105.9657250197085}}}, "place_id": "ChIJ6V7zeTWpNTERvCUI7JBMHG0", "plus_code": {"compound_code": "3XH8+8R T\u1eeb S\u01a1n, Bac Ninh Province, Vietnam", "global_code": "7PH73XH8+8R"}, "types": ["establishment", "point_of_interest"]}, {"address_components": [{"long_name": "109", "short_name": "109", "types": ["street_number"]}, {"long_name": "Tr\u1ea7n Huy Li\u1ec7u", "short_name": "Tr\u1ea7n Huy Li\u1ec7u", "types": ["route"]}, {"long_name": "Khu t\u1eadp th\u1ec3 Gi\u1ea3ng V\u00f5", "short_name": "Khu t\u1eadp th\u1ec3 Gi\u1ea3ng V\u00f5", "types": ["neighborhood", "political"]}, {"long_name": "Ba \u0110\u00ecnh", "short_name": "Ba \u0110\u00ecnh", "types": ["administrative_area_level_2", "political"]}, {"long_name": "H\u00e0 N\u1ed9i", "short_name": "H\u00e0 N\u1ed9i", "types": ["administrative_area_level_1", "political"]}, {"long_name": "Vietnam", "short_name": "VN", "types": ["country", "political"]}], "formatted_address": "109 Tr\u1ea7n Huy Li\u1ec7u, Gi\u1ea3ng V\u00f5, Ba \u0110\u00ecnh, H\u00e0 N\u1ed9i, Vietnam", "geometry": {"location": {"lat": 21.0271642, "lng": 105.8225908}, "location_type": "ROOFTOP", "viewport": {"northeast": {"lat": 21.0285131802915, "lng": 105.8239397802915}, "southwest": {"lat": 21.0258152197085, "lng": 105.8212418197085}}}, "place_id": "ChIJ-_smV3GrNTERmh-SdryCFH4", "plus_code": {"compound_code": "2RGF+V2 Hanoi, Ho\u00e0n Ki\u1ebfm, Hanoi, Vietnam", "global_code": "7PH72RGF+V2"}, "types": ["street_address"]}, {"address_components": [{"long_name": "645", "short_name": "645", "types": ["street_number"]}, {"long_name": "Kim M\u00e3", "short_name": "Kim M\u00e3", "types": ["route"]}, {"long_name": "Ba \u0110\u00ecnh", "short_name": "Ba \u0110\u00ecnh", "types": ["administrative_area_level_2", "political"]}, {"long_name": "H\u00e0 N\u1ed9i", "short_name": "H\u00e0 N\u1ed9i", "types": ["administrative_area_level_1", "political"]}, {"long_name": "Vietnam", "short_name": "VN", "types": ["country", "political"]}], "formatted_address": "645 Kim M\u00e3, Ng\u1ecdc Kh\u00e1nh, Ba \u0110\u00ecnh, H\u00e0 N\u1ed9i, Vietnam", "geometry": {"location": {"lat": 21.0291783, "lng": 105.8073084}, "location_type": "ROOFTOP", "viewport": {"northeast": {"lat": 21.0305272802915, "lng": 105.8086573802915}, "southwest": {"lat": 21.0278293197085, "lng": 105.8059594197085}}}, "place_id": "ChIJZRq8NJirNTER1vb2bLo2byU", "plus_code": {"compound_code": "2RH4+MW Hanoi, Ho\u00e0n Ki\u1ebfm, Hanoi, Vietnam", "global_code": "7PH72RH4+MW"}, "types": ["establishment", "food", "point_of_interest", "restaurant"]}, {"address_components": [{"long_name": "Ng\u00f5 462 - B\u01b0\u1edfi", "short_name": "Ng\u00f5 462 - B\u01b0\u1edfi", "types": ["route"]}, {"long_name": "Khu t\u1eadp th\u1ec3 7.2 ha", "short_name": "Khu t\u1eadp th\u1ec3 7.2 ha", "types": ["neighborhood", "political"]}, {"long_name": "Ba \u0110\u00ecnh", "short_name": "Ba \u0110\u00ecnh", "types": ["administrative_area_level_2", "political"]}, {"long_name": "H\u00e0 N\u1ed9i", "short_name": "H\u00e0 N\u1ed9i", "types": ["administrative_area_level_1", "political"]}, {"long_name": "Vietnam", "short_name": "VN", "types": ["country", "political"]}], "formatted_address": "Ng\u00f5 462 - B\u01b0\u1edfi, V\u0129nh Ph\u00fa, Ba \u0110\u00ecnh, H\u00e0 N\u1ed9i, Vietnam", "geometry": {"bounds": {"northeast": {"lat": 21.0429069, "lng": 105.808558}, "southwest": {"lat": 21.0428683, "lng": 105.808257}}, "location": {"lat": 21.0428876, "lng": 105.8084075}, "location_type": "GEOMETRIC_CENTER", "viewport": {"northeast": {"lat": 21.0442365802915, "lng": 105.8097564802915}, "southwest": {"lat": 21.0415386197085, "lng": 105.8070585197085}}}, "place_id": "ChIJ_bG9-BarNTERLpKglzUI74w", "types": ["route"]}, {"address_components": [{"long_name": "575", "short_name": "575", "types": ["street_number"]}, {"long_name": "\u0110\u01b0\u1eddng La Th\u00e0nh", "short_name": "\u0110\u01b0\u1eddng La Th\u00e0nh", "types": ["route"]}, {"long_name": "Ba \u0110\u00ecnh", "short_name": "Ba \u0110\u00ecnh", "types": ["administrative_area_level_2", "political"]}, {"long_name": "H\u00e0 N\u1ed9i", "short_name": "H\u00e0 N\u1ed9i", "types": ["administrative_area_level_1", "political"]}, {"long_name": "Vietnam", "short_name": "VN", "types": ["country", "political"]}], "formatted_address": "575 \u0110\u01b0\u1eddng La Th\u00e0nh, Th\u00e0nh C\u00f4ng, Ba \u0110\u00ecnh, H\u00e0 N\u1ed9i, Vietnam", "geometry": {"location": {"lat": 21.0237555, "lng": 105.8171405}, "location_type": "ROOFTOP", "viewport": {"northeast": {"lat": 21.0251044802915, "lng": 105.8184894802915}, "southwest": {"lat": 21.0224065197085, "lng": 105.8157915197085}}}, "place_id": "ChIJec6332-rNTERHQ5gwuktOFQ", "plus_code": {"compound_code": "2RF8+GV Hanoi, Ho\u00e0n Ki\u1ebfm, Hanoi, Vietnam", "global_code": "7PH72RF8+GV"}, "types": ["street_address"]}, {"address_components": [{"long_name": "443", "short_name": "443", "types": ["street_number"]}, {"long_name": "\u0110\u1ed9i C\u1ea5n", "short_name": "\u0110\u1ed9i C\u1ea5n", "types": ["route"]}, {"long_name": "Ba \u0110\u00ecnh", "short_name": "Ba \u0110\u00ecnh", "types": ["administrative_area_level_2", "political"]}, {"long_name": "H\u00e0 N\u1ed9i", "short_name": "H\u00e0 N\u1ed9i", "types": ["administrative_area_level_1", "political"]}, {"long_name": "Vietnam", "short_name": "VN", "types": ["country", "political"]}], "formatted_address": "443 \u0110\u1ed9i C\u1ea5n, V\u0129nh Ph\u00fa, Ba \u0110\u00ecnh, H\u00e0 N\u1ed9i, Vietnam", "geometry": {"location": {"lat": 21.038003, "lng": 105.810641}, "location_type": "ROOFTOP", "viewport": {"northeast": {"lat": 21.0393519802915, "lng": 105.8119899802915}, "southwest": {"lat": 21.0366540197085, "lng": 105.8092920197085}}}, "place_id": "ChIJuRJQZRSrNTEReg0mQuqcRQ0", "plus_code": {"compound_code": "2RQ6+67 Hanoi, Ho\u00e0n Ki\u1ebfm, Hanoi, Vietnam", "global_code": "7PH72RQ6+67"}, "types": ["convenience_store", "establishment", "food", "point_of_interest", "store"]}, {"address_components": [{"long_name": "60", "short_name": "60", "types": ["street_number"]}, {"long_name": "Ng\u00f5 N\u00fai Tr\u00fac", "short_name": "Ng\u00f5 N\u00fai Tr\u00fac", "types": ["route"]}, {"long_name": "Ba \u0110\u00ecnh", "short_name": "Ba \u0110\u00ecnh", "types": ["administrative_area_level_2", "political"]}, {"long_name": "H\u00e0 N\u1ed9i", "short_name": "H\u00e0 N\u1ed9i", "types": ["administrative_area_level_1", "political"]}, {"long_name": "Vietnam", "short_name": "VN", "types": ["country", "political"]}], "formatted_address": "60 Ng\u00f5 N\u00fai Tr\u00fac, Kim M\u00e3, Ba \u0110\u00ecnh, H\u00e0 N\u1ed9i, Vietnam", "geometry": {"location": {"lat": 21.0303782, "lng": 105.82484}, "location_type": "ROOFTOP", "viewport": {"northeast": {"lat": 21.0317271802915, "lng": 105.8261889802915}, "southwest": {"lat": 21.02902921970849, "lng": 105.8234910197085}}}, "place_id": "ChIJ195T9HSrNTERc7Iov1mdmIw", "plus_code": {"compound_code": "2RJF+5W Hanoi, Ho\u00e0n Ki\u1ebfm, Hanoi, Vietnam", "global_code": "7PH72RJF+5W"}, "types": ["establishment", "point_of_interest"]}, {"address_components": [{"long_name": "104", "short_name": "104", "types": ["street_number"]}, {"long_name": "Ng\u1ecdc H\u00e0", "short_name": "Ng\u1ecdc H\u00e0", "types": ["route"]}, {"long_name": "Ba \u0110\u00ecnh", "short_name": "Ba \u0110\u00ecnh", "types": ["administrative_area_level_2", "political"]}, {"long_name": "H\u00e0 N\u1ed9i", "short_name": "H\u00e0 N\u1ed9i", "types": ["administrative_area_level_1", "political"]}, {"long_name": "Vietnam", "short_name": "VN", "types": ["country", "political"]}], "formatted_address": "104 Ng\u1ecdc H\u00e0, Ng\u1ecdc H\u1ed3, Ba \u0110\u00ecnh, H\u00e0 N\u1ed9i, Vietnam", "geometry": {"location": {"lat": 21.037321, "lng": 105.830982}, "location_type": "ROOFTOP", "viewport": {"northeast": {"lat": 21.0386699802915, "lng": 105.8323309802915}, "southwest": {"lat": 21.0359720197085, "lng": 105.8296330197085}}}, "place_id": "ChIJIS5ExKCrNTERqUNqB0gLF04", "plus_code": {"compound_code": "2RPJ+W9 Hanoi, Ho\u00e0n Ki\u1ebfm, Hanoi, Vietnam", "global_code": "7PH72RPJ+W9"}, "types": ["street_address"]}, {"address_components": [{"long_name": "58", "short_name": "58", "types": ["street_number"]}, {"long_name": "C\u1eeda B\u1eafc", "short_name": "C\u1eeda B\u1eafc", "types": ["route"]}, {"long_name": "Ba \u0110\u00ecnh", "short_name": "Ba \u0110\u00ecnh", "types": ["administrative_area_level_2", "political"]}, {"long_name": "H\u00e0 N\u1ed9i", "short_name": "H\u00e0 N\u1ed9i", "types": ["administrative_area_level_1", "political"]}, {"long_name": "Vietnam", "short_name": "VN", "types": ["country", "political"]}], "formatted_address": "58 C\u1eeda B\u1eafc, Tr\u00fac B\u1ea1ch, Ba \u0110\u00ecnh, H\u00e0 N\u1ed9i, Vietnam", "geometry": {"location": {"lat": 21.0440359, "lng": 105.842989}, "location_type": "ROOFTOP", "viewport": {"northeast": {"lat": 21.0453848802915, "lng": 105.8443379802915}, "southwest": {"lat": 21.0426869197085, "lng": 105.8416400197085}}}, "place_id": "ChIJB-MAZrCrNTERGk-ldWK4OdM", "plus_code": {"compound_code": "2RVV+J5 Hanoi, Ho\u00e0n Ki\u1ebfm, Hanoi, Vietnam", "global_code": "7PH72RVV+J5"}, "types": ["street_address"]}, {"address_components": [{"long_name": "299", "short_name": "299", "types": ["street_number"]}, {"long_name": "\u0110\u1ed9i C\u1ea5n", "short_name": "\u0110\u1ed9i C\u1ea5n", "types": ["route"]}, {"long_name": "Ba \u0110\u00ecnh", "short_name": "Ba \u0110\u00ecnh", "types": ["administrative_area_level_2", "political"]}, {"long_name": "H\u00e0 N\u1ed9i", "short_name": "H\u00e0 N\u1ed9i", "types": ["administrative_area_level_1", "political"]}, {"long_name": "Vietnam", "short_name": "VN", "types": ["country", "political"]}], "formatted_address": "299 \u0110\u1ed9i C\u1ea5n, Li\u1ec5u Giai, Ba \u0110\u00ecnh, H\u00e0 N\u1ed9i, Vietnam", "geometry": {"location": {"lat": 21.035503, "lng": 105.8195125}, "location_type": "ROOFTOP", "viewport": {"northeast": {"lat": 21.0368519802915, "lng": 105.8208614802915}, "southwest": {"lat": 21.0341540197085, "lng": 105.8181635197085}}}, "place_id": "ChIJw4JWFw2rNTER15CpFtOnEgo", "plus_code": {"compound_code": "2RP9+6R Hanoi, Ho\u00e0n Ki\u1ebfm, Hanoi, Vietnam", "global_code": "7PH72RP9+6R"}, "types": ["establishment", "point_of_interest"]}, {"address_components": [{"long_name": "55", "short_name": "55", "types": ["street_number"]}, {"long_name": "Nguy\u1ec5n Kh\u1eafc Nhu", "short_name": "Nguy\u1ec5n Kh\u1eafc Nhu", "types": ["route"]}, {"long_name": "Ba \u0110\u00ecnh", "short_name": "Ba \u0110\u00ecnh", "types": ["administrative_area_level_2", "political"]}, {"long_name": "H\u00e0 N\u1ed9i", "short_name": "H\u00e0 N\u1ed9i", "types": ["administrative_area_level_1", "political"]}, {"long_name": "Vietnam", "short_name": "VN", "types": ["country", "political"]}], "formatted_address": "55 Nguy\u1ec5n Kh\u1eafc Nhu, Nguy\u1ec5n Trung Tr\u1ef1c, Ba \u0110\u00ecnh, H\u00e0 N\u1ed9i, Vietnam", "geometry": {"location": {"lat": 21.0435832, "lng": 105.84652}, "location_type": "ROOFTOP", "viewport": {"northeast": {"lat": 21.0449321802915, "lng": 105.8478689802915}, "southwest": {"lat": 21.0422342197085, "lng": 105.8451710197085}}}, "place_id": "ChIJPbcTs7CrNTERMXbVsc0EKgA", "plus_code": {"compound_code": "2RVW+CJ Hanoi, Ho\u00e0n Ki\u1ebfm, Hanoi, Vietnam", "global_code": "7PH72RVW+CJ"}, "types": ["street_address"]}, {"address_components": [{"long_name": "\u0110\u01b0\u1eddng B\u01b0\u1edfi", "short_name": "\u0110\u01b0\u1eddng B\u01b0\u1edfi", "types": ["route"]}, {"long_name": "Ba \u0110\u00ecnh", "short_name": "Ba \u0110\u00ecnh", "types": ["administrative_area_level_2", "political"]}, {"long_name": "H\u00e0 N\u1ed9i", "short_name": "H\u00e0 N\u1ed9i", "types": ["administrative_area_level_1", "political"]}, {"long_name": "Vietnam", "short_name": "VN", "types": ["country", "political"]}], "formatted_address": "s\u1ed1 14 ng\u00e1ch 254/1, \u0110\u01b0\u1eddng B\u01b0\u1edfi, C\u1ed1ng V\u1ecb, Ba \u0110\u00ecnh, H\u00e0 N\u1ed9i, Vietnam", "geometry": {"location": {"lat": 21.0366682, "lng": 105.8071707}, "location_type": "GEOMETRIC_CENTER", "viewport": {"northeast": {"lat": 21.0380171802915, "lng": 105.8085196802915}, "southwest": {"lat": 21.03531921970849, "lng": 105.8058217197085}}}, "place_id": "ChIJRWsMExWrNTERH9r30ifsqWM", "plus_code": {"compound_code": "2RP4+MV Hanoi, Ho\u00e0n Ki\u1ebfm, Hanoi, Vietnam", "global_code": "7PH72RP4+MV"}, "types": ["establishment", "point_of_interest", "store"]}, {"address_components": [{"long_name": "11", "short_name": "11", "types": ["street_number"]}, {"long_name": "Ng\u00f5 84 Ng\u1ecdc Kh\u00e1nh", "short_name": "Ng\u00f5 84 Ng\u1ecdc Kh\u00e1nh", "types": ["route"]}, {"long_name": "Ba \u0110\u00ecnh", "short_name": "Ba \u0110\u00ecnh", "types": ["administrative_area_level_2", "political"]}, {"long_name": "H\u00e0 N\u1ed9i", "short_name": "H\u00e0 N\u1ed9i", "types": ["administrative_area_level_1", "political"]}, {"long_name": "Vietnam", "short_name": "VN", "types": ["country", "political"]}], "formatted_address": "11 Ng\u00f5 84 Ng\u1ecdc Kh\u00e1nh, Gi\u1ea3ng V\u00f5, Ba \u0110\u00ecnh, H\u00e0 N\u1ed9i, Vietnam", "geometry": {"location": {"lat": 21.026802, "lng": 105.8155648}, "location_type": "ROOFTOP", "viewport": {"northeast": {"lat": 21.0281509802915, "lng": 105.8169137802915}, "southwest": {"lat": 21.0254530197085, "lng": 105.8142158197085}}}, "place_id": "ChIJb-VBam6rNTER6qaIlhH_14g", "plus_code": {"compound_code": "2RG8+P6 Hanoi, Ho\u00e0n Ki\u1ebfm, Hanoi, Vietnam", "global_code": "7PH72RG8+P6"}, "types": ["street_address"]}, {"address_components": [{"long_name": "18B", "short_name": "18B", "types": ["street_number"]}, {"long_name": "Nguy\u1ec5n Bi\u1ec3u", "short_name": "Nguy\u1ec5n Bi\u1ec3u", "types": ["route"]}, {"long_name": "Ba \u0110\u00ecnh", "short_name": "Ba \u0110\u00ecnh", "types": ["administrative_area_level_2", "political"]}, {"long_name": "H\u00e0 N\u1ed9i", "short_name": "H\u00e0 N\u1ed9i", "types": ["administrative_area_level_1", "political"]}, {"long_name": "Vietnam", "short_name": "VN", "types": ["country", "political"]}], "formatted_address": "18B Nguy\u1ec5n Bi\u1ec3u, Qu\u00e1n Th\u00e1nh, Ba \u0110\u00ecnh, H\u00e0 N\u1ed9i, Vietnam", "geometry": {"location": {"lat": 21.0415455, "lng": 105.840011}, "location_type": "ROOFTOP", "viewport": {"northeast": {"lat": 21.0428944802915, "lng": 105.8413599802915}, "southwest": {"lat": 21.0401965197085, "lng": 105.8386620197085}}}, "place_id": "ChIJ32aEN6WrNTERlaJRR4KfrmA", "plus_code": {"compound_code": "2RRR+J2 Hanoi, Ho\u00e0n Ki\u1ebfm, Hanoi, Vietnam", "global_code": "7PH72RRR+J2"}, "types": ["street_address"]}, {"address_components": [{"long_name": "Vietnam", "short_name": "VN", "types": ["country", "political"]}, {"long_name": "Ba \u0110\u00ecnh", "short_name": "Ba \u0110\u00ecnh", "types": ["administrative_area_level_2", "political"]}, {"long_name": "H\u00e0 N\u1ed9i", "short_name": "H\u00e0 N\u1ed9i", "types": ["administrative_area_level_1", "political"]}], "formatted_address": "73, Qu\u00e1n Th\u00e1nh, Ba \u0110\u00ecnh, H\u00e0 N\u1ed9i, Vietnam", "geometry": {"location": {"lat": 21.0425271, "lng": 105.8415173}, "location_type": "GEOMETRIC_CENTER", "viewport": {"northeast": {"lat": 21.0438760802915, "lng": 105.8428662802915}, "southwest": {"lat": 21.04117811970849, "lng": 105.8401683197085}}}, "place_id": "ChIJ8QccR1SrNTERRkKGRMxfJk4", "plus_code": {"compound_code": "2RVR+2J Hanoi, Ho\u00e0n Ki\u1ebfm, Hanoi, Vietnam", "global_code": "7PH72RVR+2J"}, "types": ["establishment", "point_of_interest", "store"]}, {"address_components": [{"long_name": "6", "short_name": "6", "types": ["street_number"]}, {"long_name": "\u0110\u1ed9i Nh\u00e2n", "short_name": "\u0110\u1ed9i Nh\u00e2n", "types": ["route"]}, {"long_name": "Ba \u0110\u00ecnh", "short_name": "Ba \u0110\u00ecnh", "types": ["administrative_area_level_2", "political"]}, {"long_name": "H\u00e0 N\u1ed9i", "short_name": "H\u00e0 N\u1ed9i", "types": ["administrative_area_level_1", "political"]}, {"long_name": "Vietnam", "short_name": "VN", "types": ["country", "political"]}], "formatted_address": "6 \u0110\u1ed9i Nh\u00e2n, V\u0129nh Ph\u00fa, Ba \u0110\u00ecnh, H\u00e0 N\u1ed9i, Vietnam", "geometry": {"location": {"lat": 21.041958, "lng": 105.810829}, "location_type": "ROOFTOP", "viewport": {"northeast": {"lat": 21.0433069802915, "lng": 105.8121779802915}, "southwest": {"lat": 21.0406090197085, "lng": 105.8094800197085}}}, "place_id": "ChIJ-ezayBarNTERaa-cbznmazM", "plus_code": {"compound_code": "2RR6+Q8 Hanoi, Ho\u00e0n Ki\u1ebfm, Hanoi, Vietnam", "global_code": "7PH72RR6+Q8"}, "types": ["street_address"]}, {"address_components": [{"long_name": "29a", "short_name": "29a", "types": ["street_number"]}, {"long_name": "Nguy\u1ec5n C\u00f4ng Hoan", "short_name": "Nguy\u1ec5n C\u00f4ng Hoan", "types": ["route"]}, {"long_name": "Ba \u0110\u00ecnh", "short_name": "Ba \u0110\u00ecnh", "types": ["administrative_area_level_2", "political"]}, {"long_name": "H\u00e0 N\u1ed9i", "short_name": "H\u00e0 N\u1ed9i", "types": ["administrative_area_level_1", "political"]}, {"long_name": "Vietnam", "short_name": "VN", "types": ["country", "political"]}], "formatted_address": "29a Nguy\u1ec5n C\u00f4ng Hoan, Gi\u1ea3ng V\u00f5, Ba \u0110\u00ecnh, H\u00e0 N\u1ed9i, Vietnam", "geometry": {"location": {"lat": 21.0272468, "lng": 105.814508}, "location_type": "ROOFTOP", "viewport": {"northeast": {"lat": 21.0285957802915, "lng": 105.8158569802915}, "southwest": {"lat": 21.0258978197085, "lng": 105.8131590197085}}}, "place_id": "ChIJF5M2Ym6rNTERYMiqXf0YCHg", "plus_code": {"compound_code": "2RG7+VR Hanoi, Ho\u00e0n Ki\u1ebfm, Hanoi, Vietnam", "global_code": "7PH72RG7+VR"}, "types": ["street_address"]}, {"address_components": [{"long_name": "502", "short_name": "502", "types": ["street_number"]}, {"long_name": "\u0110\u1ed9i C\u1ea5n", "short_name": "\u0110\u1ed9i C\u1ea5n", "types": ["route"]}, {"long_name": "Ba \u0110\u00ecnh", "short_name": "Ba \u0110\u00ecnh", "types": ["administrative_area_level_2", "political"]}, {"long_name": "H\u00e0 N\u1ed9i", "short_name": "H\u00e0 N\u1ed9i", "types": ["administrative_area_level_1", "political"]}, {"long_name": "Vietnam", "short_name": "VN", "types": ["country", "political"]}], "formatted_address": "502 \u0110\u1ed9i C\u1ea5n, C\u1ed1ng V\u1ecb, Ba \u0110\u00ecnh, H\u00e0 N\u1ed9i, Vietnam", "geometry": {"location": {"lat": 21.037676, "lng": 105.808615}, "location_type": "ROOFTOP", "viewport": {"northeast": {"lat": 21.0390249802915, "lng": 105.8099639802915}, "southwest": {"lat": 21.03632701970849, "lng": 105.8072660197085}}}, "place_id": "ChIJe8EcVRSrNTERlIh549wUefQ", "plus_code": {"compound_code": "2RQ5+3C Hanoi, Ho\u00e0n Ki\u1ebfm, Hanoi, Vietnam", "global_code": "7PH72RQ5+3C"}, "types": ["street_address"]}, {"address_components": [{"long_name": "33", "short_name": "33", "types": ["street_number"]}, {"long_name": "T\u00e2n \u1ea4p", "short_name": "T\u00e2n \u1ea4p", "types": ["route"]}, {"long_name": "\u00c2\u0301p Tha\u0323nh Vinh", "short_name": "\u00c2\u0301p Tha\u0323nh Vinh", "types": ["neighborhood", "political"]}, {"long_name": "Ba \u0110\u00ecnh", "short_name": "Ba \u0110\u00ecnh", "types": ["administrative_area_level_2", "political"]}, {"long_name": "H\u00e0 N\u1ed9i", "short_name": "H\u00e0 N\u1ed9i", "types": ["administrative_area_level_1", "political"]}, {"long_name": "Vietnam", "short_name": "VN", "types": ["country", "political"]}], "formatted_address": "33 T\u00e2n \u1ea4p, Ph\u00fac x\u00e1, Ba \u0110\u00ecnh, H\u00e0 N\u1ed9i, Vietnam", "geometry": {"location": {"lat": 21.0460796, "lng": 105.8464855}, "location_type": "ROOFTOP", "viewport": {"northeast": {"lat": 21.0474285802915, "lng": 105.8478344802915}, "southwest": {"lat": 21.0447306197085, "lng": 105.8451365197085}}}, "place_id": "ChIJeS4ELbGrNTERVl_UCgmF63M", "plus_code": {"compound_code": "2RWW+CH Phuc Xa, Ba \u0110\u00ecnh, Hanoi, Vietnam", "global_code": "7PH72RWW+CH"}, "types": ["establishment", "point_of_interest"]}, {"address_components": [{"long_name": "27", "short_name": "27", "types": ["street_number"]}, {"long_name": "Ph\u1ea1m H\u1ed3ng Th\u00e1i", "short_name": "Ph\u1ea1m H\u1ed3ng Th\u00e1i", "types": ["route"]}, {"long_name": "Ba \u0110\u00ecnh", "short_name": "Ba \u0110\u00ecnh", "types": ["administrative_area_level_2", "political"]}, {"long_name": "H\u00e0 N\u1ed9i", "short_name": "H\u00e0 N\u1ed9i", "types": ["administrative_area_level_1", "political"]}, {"long_name": "Vietnam", "short_name": "VN", "types": ["country", "political"]}], "formatted_address": "27 Ph\u1ea1m H\u1ed3ng Th\u00e1i, Tr\u00fac B\u1ea1ch, Ba \u0110\u00ecnh, H\u00e0 N\u1ed9i, Vietnam", "geometry": {"location": {"lat": 21.0436214, "lng": 105.844962}, "location_type": "ROOFTOP", "viewport": {"northeast": {"lat": 21.04497038029151, "lng": 105.8463109802915}, "southwest": {"lat": 21.0422724197085, "lng": 105.8436130197085}}}, "place_id": "ChIJ47MFl7CrNTER-dmNuMnkDm8", "plus_code": {"compound_code": "2RVV+CX Hanoi, Ho\u00e0n Ki\u1ebfm, Hanoi, Vietnam", "global_code": "7PH72RVV+CX"}, "types": ["street_address"]}], "time_window": [[0, 600000], [9000, 14400], [0, 5400], [5400, 16200], [5400, 16200], [1800, 12600], [5400, 16200], [5400, 16200], [12600, 18000], [0, 5400], [5400, 10800], [5400, 16200], [9000, 14400], [0, 5400], [7200, 12600], [1800, 7200], [0, 10800], [1800, 12600], [9000, 14400], [9000, 14400]], "depot": 0, "metadata": {}}