{"problem": {"depot": 0, "destination": [{"address_components": [{"long_name": "S\u1ed1 1", "short_name": "S\u1ed1 1", "types": ["street_number"]}, {"long_name": "\u0110\u01b0\u1eddng H\u1eefu Ngh\u1ecb", "short_name": "\u0110\u01b0\u1eddng H\u1eefu Ngh\u1ecb", "types": ["route"]}, {"long_name": "Th\u1ecb x\u00e3 T\u1eeb S\u01a1n", "short_name": "Tx. T\u1eeb S\u01a1n", "types": ["locality", "political"]}, {"long_name": "B\u1eafc Ninh", "short_name": "B\u1eafc Ninh", "types": ["administrative_area_level_1", "political"]}, {"long_name": "Vietnam", "short_name": "VN", "types": ["country", "political"]}], "formatted_address": "S\u1ed1 1 \u0110\u01b0\u1eddng H\u1eefu Ngh\u1ecb, Ph\u00f9 Ch\u1ea9n, T\u1eeb S\u01a1n, B\u1eafc Ninh, Vietnam", "geometry": {"location": {"lat": 21.0782946, "lng": 105.967074}, "location_type": "ROOFTOP", "viewport": {"northeast": {"lat": 21.0796435802915, "lng": 105.9684229802915}, "southwest": {"lat": 21.0769456197085, "lng": 105.9657250197085}}}, "place_id": "ChIJ6V7zeTWpNTERvCUI7JBMHG0", "plus_code": {"compound_code": "3XH8+8R T\u1eeb S\u01a1n, Bac Ninh Province, Vietnam", "global_code": "7PH73XH8+8R"}, "types": ["establishment", "point_of_interest"]}, {"address_components": [{"long_name": "F8 C11", "short_name": "F8 C11", "types": ["street_number"]}, {"long_name": "Gi\u1ea3ng V\u00f5", "short_name": "Gi\u1ea3ng V\u00f5", "types": ["route"]}, {"long_name": "Khu t\u1eadp th\u1ec3 Gi\u1ea3ng V\u00f5", "short_name": "Khu t\u1eadp th\u1ec3 Gi\u1ea3ng V\u00f5", "types": ["neighborhood", "political"]}, {"long_name": "Ba \u0110\u00ecnh", "short_name": "Ba \u0110\u00ecnh", "types": ["administrative_area_level_2", "political"]}, {"long_name": "H\u00e0 N\u1ed9i", "short_name": "H\u00e0 N\u1ed9i", "types": ["administrative_area_level_1", "political"]}, {"long_name": "Vietnam", "short_name": "VN", "types": ["country", "political"]}], "formatted_address": "F8 C11 Gi\u1ea3ng V\u00f5, Ba \u0110\u00ecnh, H\u00e0 N\u1ed9i, Vietnam", "geometry": {"location": {"lat": 21.027593, "lng": 105.82379}, "location_type": "ROOFTOP", "viewport": {"northeast": {"lat": 21.0289419802915, "lng": 105.8251389802915}, "southwest": {"lat": 21.0262440197085, "lng": 105.8224410197085}}}, "place_id": "ChIJ41QYA3SrNTERF11hkNleOgE", "plus_code": {"compound_code": "2RHF+2G Hanoi, Ho\u00e0n Ki\u1ebfm, Hanoi, Vietnam", "global_code": "7PH72RHF+2G"}, "types": ["street_address"]}, {"address_components": [{"long_name": "645", "short_name": "645", "types": ["street_number"]}, {"long_name": "Kim M\u00e3", "short_name": "Kim M\u00e3", "types": ["route"]}, {"long_name": "Ba \u0110\u00ecnh", "short_name": "Ba \u0110\u00ecnh", "types": ["administrative_area_level_2", "political"]}, {"long_name": "H\u00e0 N\u1ed9i", "short_name": "H\u00e0 N\u1ed9i", "types": ["administrative_area_level_1", "political"]}, {"long_name": "Vietnam", "short_name": "VN", "types": ["country", "political"]}], "formatted_address": "645 Kim M\u00e3, Ng\u1ecdc Kh\u00e1nh, Ba \u0110\u00ecnh, H\u00e0 N\u1ed9i, Vietnam", "geometry": {"location": {"lat": 21.0291783, "lng": 105.8073084}, "location_type": "ROOFTOP", "viewport": {"northeast": {"lat": 21.0305272802915, "lng": 105.8086573802915}, "southwest": {"lat": 21.0278293197085, "lng": 105.8059594197085}}}, "place_id": "ChIJZRq8NJirNTER1vb2bLo2byU", "plus_code": {"compound_code": "2RH4+MW Hanoi, Ho\u00e0n Ki\u1ebfm, Hanoi, Vietnam", "global_code": "7PH72RH4+MW"}, "types": ["establishment", "food", "point_of_interest", "restaurant"]}, {"address_components": [{"long_name": "140", "short_name": "140", "types": ["street_number"]}, {"long_name": "\u0110\u1ed1c Ng\u1eef", "short_name": "\u0110\u1ed1c Ng\u1eef", "types": ["route"]}, {"long_name": "Ba \u0110\u00ecnh", "short_name": "Ba \u0110\u00ecnh", "types": ["administrative_area_level_2", "political"]}, {"long_name": "H\u00e0 N\u1ed9i", "short_name": "H\u00e0 N\u1ed9i", "types": ["administrative_area_level_1", "political"]}, {"long_name": "Vietnam", "short_name": "VN", "types": ["country", "political"]}], "formatted_address": "140 \u0110\u1ed1c Ng\u1eef, V\u0129nh Ph\u00fa, Ba \u0110\u00ecnh, H\u00e0 N\u1ed9i, Vietnam", "geometry": {"location": {"lat": 21.0382448, "lng": 105.8128237}, "location_type": "ROOFTOP", "viewport": {"northeast": {"lat": 21.0395937802915, "lng": 105.8141726802915}, "southwest": {"lat": 21.03689581970849, "lng": 105.8114747197085}}}, "place_id": "ChIJD2TvlROrNTER0rAWLd51-7M", "plus_code": {"compound_code": "2RQ7+74 Hanoi, Ho\u00e0n Ki\u1ebfm, Hanoi, Vietnam", "global_code": "7PH72RQ7+74"}, "types": ["street_address"]}, {"address_components": [{"long_name": "28", "short_name": "28", "types": ["street_number"]}, {"long_name": "Ph\u1ed1 Nguy\u1ec5n Th\u00e1i H\u1ecdc", "short_name": "Ph\u1ed1 Nguy\u1ec5n Th\u00e1i H\u1ecdc", "types": ["route"]}, {"long_name": "\u0110\u1ed1ng \u0110a", "short_name": "\u0110\u1ed1ng \u0110a", "types": ["administrative_area_level_2", "political"]}, {"long_name": "H\u00e0 N\u1ed9i", "short_name": "H\u00e0 N\u1ed9i", "types": ["administrative_area_level_1", "political"]}, {"long_name": "Vietnam", "short_name": "VN", "types": ["country", "political"]}], "formatted_address": "28 Ph\u1ed1 Nguy\u1ec5n Th\u00e1i H\u1ecdc, \u0110i\u1ec7n B\u00e0n, \u0110\u1ed1ng \u0110a, H\u00e0 N\u1ed9i, Vietnam", "geometry": {"location": {"lat": 21.0292819, "lng": 105.840235}, "location_type": "ROOFTOP", "viewport": {"northeast": {"lat": 21.0306308802915, "lng": 105.8415839802915}, "southwest": {"lat": 21.02793291970849, "lng": 105.8388860197085}}}, "place_id": "ChIJE9oGL5irNTERFfA8LHy2cYA", "plus_code": {"compound_code": "2RHR+P3 Hanoi, Ho\u00e0n Ki\u1ebfm, Hanoi, Vietnam", "global_code": "7PH72RHR+P3"}, "types": ["street_address"]}, {"address_components": [{"long_name": "Vietnam", "short_name": "VN", "types": ["country", "political"]}, {"long_name": "Ba \u0110\u00ecnh", "short_name": "Ba \u0110\u00ecnh", "types": ["administrative_area_level_2", "political"]}, {"long_name": "H\u00e0 N\u1ed9i", "short_name": "H\u00e0 N\u1ed9i", "types": ["administrative_area_level_1", "political"]}], "formatted_address": "73, Qu\u00e1n Th\u00e1nh, Ba \u0110\u00ecnh, H\u00e0 N\u1ed9i, Vietnam", "geometry": {"location": {"lat": 21.0425271, "lng": 105.8415173}, "location_type": "GEOMETRIC_CENTER", "viewport": {"northeast": {"lat": 21.0438760802915, "lng": 105.8428662802915}, "southwest": {"lat": 21.04117811970849, "lng": 105.8401683197085}}}, "place_id": "ChIJ8QccR1SrNTERRkKGRMxfJk4", "plus_code": {"compound_code": "2RVR+2J Hanoi, Ho\u00e0n Ki\u1ebfm, Hanoi, Vietnam", "global_code": "7PH72RVR+2J"}, "types": ["establishment", "point_of_interest", "store"]}, {"address_components": [{"long_name": "500", "short_name": "500", "types": ["street_number"]}, {"long_name": "Ho\u00e0ng Hoa Th\u00e1m", "short_name": "Ho\u00e0ng Hoa Th\u00e1m", "types": ["route"]}, {"long_name": "Ba \u0110\u00ecnh", "short_name": "Ba \u0110\u00ecnh", "types": ["administrative_area_level_2", "political"]}, {"long_name": "H\u00e0 N\u1ed9i", "short_name": "H\u00e0 N\u1ed9i", "types": ["administrative_area_level_1", "political"]}, {"long_name": "Vietnam", "short_name": "VN", "types": ["country", "political"]}], "formatted_address": "500 Ho\u00e0ng Hoa Th\u00e1m, V\u0129nh Ph\u00fa, Ba \u0110\u00ecnh, H\u00e0 N\u1ed9i, Vietnam", "geometry": {"location": {"lat": 21.04574, "lng": 105.811528}, "location_type": "ROOFTOP", "viewport": {"northeast": {"lat": 21.0470889802915, "lng": 105.8128769802915}, "southwest": {"lat": 21.0443910197085, "lng": 105.8101790197085}}}, "place_id": "ChIJDWweqxCrNTERaQ16VaKzaRk", "plus_code": {"compound_code": "2RW6+7J Hanoi, Ho\u00e0n Ki\u1ebfm, Hanoi, Vietnam", "global_code": "7PH72RW6+7J"}, "types": ["street_address"]}, {"address_components": [{"long_name": "29a", "short_name": "29a", "types": ["street_number"]}, {"long_name": "Nguy\u1ec5n C\u00f4ng Hoan", "short_name": "Nguy\u1ec5n C\u00f4ng Hoan", "types": ["route"]}, {"long_name": "Ba \u0110\u00ecnh", "short_name": "Ba \u0110\u00ecnh", "types": ["administrative_area_level_2", "political"]}, {"long_name": "H\u00e0 N\u1ed9i", "short_name": "H\u00e0 N\u1ed9i", "types": ["administrative_area_level_1", "political"]}, {"long_name": "Vietnam", "short_name": "VN", "types": ["country", "political"]}], "formatted_address": "29a Nguy\u1ec5n C\u00f4ng Hoan, Gi\u1ea3ng V\u00f5, Ba \u0110\u00ecnh, H\u00e0 N\u1ed9i, Vietnam", "geometry": {"location": {"lat": 21.0272468, "lng": 105.814508}, "location_type": "ROOFTOP", "viewport": {"northeast": {"lat": 21.0285957802915, "lng": 105.8158569802915}, "southwest": {"lat": 21.0258978197085, "lng": 105.8131590197085}}}, "place_id": "ChIJF5M2Ym6rNTERYMiqXf0YCHg", "plus_code": {"compound_code": "2RG7+VR Hanoi, Ho\u00e0n Ki\u1ebfm, Hanoi, Vietnam", "global_code": "7PH72RG7+VR"}, "types": ["street_address"]}, {"address_components": [{"long_name": "502", "short_name": "502", "types": ["street_number"]}, {"long_name": "\u0110\u1ed9i C\u1ea5n", "short_name": "\u0110\u1ed9i C\u1ea5n", "types": ["route"]}, {"long_name": "Ba \u0110\u00ecnh", "short_name": "Ba \u0110\u00ecnh", "types": ["administrative_area_level_2", "political"]}, {"long_name": "H\u00e0 N\u1ed9i", "short_name": "H\u00e0 N\u1ed9i", "types": ["administrative_area_level_1", "political"]}, {"long_name": "Vietnam", "short_name": "VN", "types": ["country", "political"]}], "formatted_address": "502 \u0110\u1ed9i C\u1ea5n, C\u1ed1ng V\u1ecb, Ba \u0110\u00ecnh, H\u00e0 N\u1ed9i, Vietnam", "geometry": {"location": {"lat": 21.037676, "lng": 105.808615}, "location_type": "ROOFTOP", "viewport": {"northeast": {"lat": 21.0390249802915, "lng": 105.8099639802915}, "southwest": {"lat": 21.03632701970849, "lng": 105.8072660197085}}}, "place_id": "ChIJe8EcVRSrNTERlIh549wUefQ", "plus_code": {"compound_code": "2RQ5+3C Hanoi, Ho\u00e0n Ki\u1ebfm, Hanoi, Vietnam", "global_code": "7PH72RQ5+3C"}, "types": ["street_address"]}], "time_window": [[0, 600000], [7200, 18000], [3600, 9000], [7200, 18000], [9000, 19800], [7200, 18000], [0, 10800], [10800, 21600], [5400, 16200]]}, "metadata": {"visualize": {"covered_point": [21.036345750000002, 105.8279087], "zoom_level": 13, "layout": {"width": "1400px", "height": "800px"}}}}