{"problem": {"depot": 0, "destination": [{"address_components": [{"long_name": "S\u1ed1 1", "short_name": "S\u1ed1 1", "types": ["street_number"]}, {"long_name": "\u0110\u01b0\u1eddng H\u1eefu Ngh\u1ecb", "short_name": "\u0110\u01b0\u1eddng H\u1eefu Ngh\u1ecb", "types": ["route"]}, {"long_name": "Th\u1ecb x\u00e3 T\u1eeb S\u01a1n", "short_name": "Tx. T\u1eeb S\u01a1n", "types": ["locality", "political"]}, {"long_name": "B\u1eafc Ninh", "short_name": "B\u1eafc Ninh", "types": ["administrative_area_level_1", "political"]}, {"long_name": "Vietnam", "short_name": "VN", "types": ["country", "political"]}], "formatted_address": "S\u1ed1 1 \u0110\u01b0\u1eddng H\u1eefu Ngh\u1ecb, Ph\u00f9 Ch\u1ea9n, T\u1eeb S\u01a1n, B\u1eafc Ninh, Vietnam", "geometry": {"location": {"lat": 21.0782946, "lng": 105.967074}, "location_type": "ROOFTOP", "viewport": {"northeast": {"lat": 21.0796435802915, "lng": 105.9684229802915}, "southwest": {"lat": 21.0769456197085, "lng": 105.9657250197085}}}, "place_id": "ChIJ6V7zeTWpNTERvCUI7JBMHG0", "plus_code": {"compound_code": "3XH8+8R T\u1eeb S\u01a1n, Bac Ninh Province, Vietnam", "global_code": "7PH73XH8+8R"}, "types": ["establishment", "point_of_interest"]}, {"address_components": [{"long_name": "109", "short_name": "109", "types": ["street_number"]}, {"long_name": "Tr\u1ea7n Huy Li\u1ec7u", "short_name": "Tr\u1ea7n Huy Li\u1ec7u", "types": ["route"]}, {"long_name": "Khu t\u1eadp th\u1ec3 Gi\u1ea3ng V\u00f5", "short_name": "Khu t\u1eadp th\u1ec3 Gi\u1ea3ng V\u00f5", "types": ["neighborhood", "political"]}, {"long_name": "Ba \u0110\u00ecnh", "short_name": "Ba \u0110\u00ecnh", "types": ["administrative_area_level_2", "political"]}, {"long_name": "H\u00e0 N\u1ed9i", "short_name": "H\u00e0 N\u1ed9i", "types": ["administrative_area_level_1", "political"]}, {"long_name": "Vietnam", "short_name": "VN", "types": ["country", "political"]}], "formatted_address": "109 Tr\u1ea7n Huy Li\u1ec7u, Gi\u1ea3ng V\u00f5, Ba \u0110\u00ecnh, H\u00e0 N\u1ed9i, Vietnam", "geometry": {"location": {"lat": 21.0271642, "lng": 105.8225908}, "location_type": "ROOFTOP", "viewport": {"northeast": {"lat": 21.0285131802915, "lng": 105.8239397802915}, "southwest": {"lat": 21.0258152197085, "lng": 105.8212418197085}}}, "place_id": "ChIJ-_smV3GrNTERmh-SdryCFH4", "plus_code": {"compound_code": "2RGF+V2 Hanoi, Ho\u00e0n Ki\u1ebfm, Hanoi, Vietnam", "global_code": "7PH72RGF+V2"}, "types": ["street_address"]}, {"address_components": [{"long_name": "575", "short_name": "575", "types": ["street_number"]}, {"long_name": "\u0110\u01b0\u1eddng La Th\u00e0nh", "short_name": "\u0110\u01b0\u1eddng La Th\u00e0nh", "types": ["route"]}, {"long_name": "Ba \u0110\u00ecnh", "short_name": "Ba \u0110\u00ecnh", "types": ["administrative_area_level_2", "political"]}, {"long_name": "H\u00e0 N\u1ed9i", "short_name": "H\u00e0 N\u1ed9i", "types": ["administrative_area_level_1", "political"]}, {"long_name": "Vietnam", "short_name": "VN", "types": ["country", "political"]}], "formatted_address": "575 \u0110\u01b0\u1eddng La Th\u00e0nh, Th\u00e0nh C\u00f4ng, Ba \u0110\u00ecnh, H\u00e0 N\u1ed9i, Vietnam", "geometry": {"location": {"lat": 21.0237555, "lng": 105.8171405}, "location_type": "ROOFTOP", "viewport": {"northeast": {"lat": 21.0251044802915, "lng": 105.8184894802915}, "southwest": {"lat": 21.0224065197085, "lng": 105.8157915197085}}}, "place_id": "ChIJec6332-rNTERHQ5gwuktOFQ", "plus_code": {"compound_code": "2RF8+GV Hanoi, Ho\u00e0n Ki\u1ebfm, Hanoi, Vietnam", "global_code": "7PH72RF8+GV"}, "types": ["street_address"]}, {"address_components": [{"long_name": "70B", "short_name": "70B", "types": ["street_number"]}, {"long_name": "\u0110\u1ed9i C\u1ea5n", "short_name": "\u0110\u1ed9i C\u1ea5n", "types": ["route"]}, {"long_name": "Ba \u0110\u00ecnh", "short_name": "Ba \u0110\u00ecnh", "types": ["administrative_area_level_2", "political"]}, {"long_name": "H\u00e0 N\u1ed9i", "short_name": "H\u00e0 N\u1ed9i", "types": ["administrative_area_level_1", "political"]}, {"long_name": "Vietnam", "short_name": "VN", "types": ["country", "political"]}], "formatted_address": "70B \u0110\u1ed9i C\u1ea5n, Ba \u0110\u00ecnh, H\u00e0 N\u1ed9i, Vietnam", "geometry": {"location": {"lat": 21.034485, "lng": 105.829585}, "location_type": "ROOFTOP", "viewport": {"northeast": {"lat": 21.0358339802915, "lng": 105.8309339802915}, "southwest": {"lat": 21.0331360197085, "lng": 105.8282360197085}}}, "place_id": "ChIJTWqdcaCrNTERELv1fkktr7o", "plus_code": {"compound_code": "2RMH+QR Hanoi, Ho\u00e0n Ki\u1ebfm, Hanoi, Vietnam", "global_code": "7PH72RMH+QR"}, "types": ["street_address"]}, {"address_components": [{"long_name": "299", "short_name": "299", "types": ["street_number"]}, {"long_name": "\u0110\u1ed9i C\u1ea5n", "short_name": "\u0110\u1ed9i C\u1ea5n", "types": ["route"]}, {"long_name": "Ba \u0110\u00ecnh", "short_name": "Ba \u0110\u00ecnh", "types": ["administrative_area_level_2", "political"]}, {"long_name": "H\u00e0 N\u1ed9i", "short_name": "H\u00e0 N\u1ed9i", "types": ["administrative_area_level_1", "political"]}, {"long_name": "Vietnam", "short_name": "VN", "types": ["country", "political"]}], "formatted_address": "299 \u0110\u1ed9i C\u1ea5n, Li\u1ec5u Giai, Ba \u0110\u00ecnh, H\u00e0 N\u1ed9i, Vietnam", "geometry": {"location": {"lat": 21.035503, "lng": 105.8195125}, "location_type": "ROOFTOP", "viewport": {"northeast": {"lat": 21.0368519802915, "lng": 105.8208614802915}, "southwest": {"lat": 21.0341540197085, "lng": 105.8181635197085}}}, "place_id": "ChIJw4JWFw2rNTER15CpFtOnEgo", "plus_code": {"compound_code": "2RP9+6R Hanoi, Ho\u00e0n Ki\u1ebfm, Hanoi, Vietnam", "global_code": "7PH72RP9+6R"}, "types": ["establishment", "point_of_interest"]}, {"address_components": [{"long_name": "18B", "short_name": "18B", "types": ["street_number"]}, {"long_name": "Nguy\u1ec5n Bi\u1ec3u", "short_name": "Nguy\u1ec5n Bi\u1ec3u", "types": ["route"]}, {"long_name": "Ba \u0110\u00ecnh", "short_name": "Ba \u0110\u00ecnh", "types": ["administrative_area_level_2", "political"]}, {"long_name": "H\u00e0 N\u1ed9i", "short_name": "H\u00e0 N\u1ed9i", "types": ["administrative_area_level_1", "political"]}, {"long_name": "Vietnam", "short_name": "VN", "types": ["country", "political"]}], "formatted_address": "18B Nguy\u1ec5n Bi\u1ec3u, Qu\u00e1n Th\u00e1nh, Ba \u0110\u00ecnh, H\u00e0 N\u1ed9i, Vietnam", "geometry": {"location": {"lat": 21.0415455, "lng": 105.840011}, "location_type": "ROOFTOP", "viewport": {"northeast": {"lat": 21.0428944802915, "lng": 105.8413599802915}, "southwest": {"lat": 21.0401965197085, "lng": 105.8386620197085}}}, "place_id": "ChIJ32aEN6WrNTERlaJRR4KfrmA", "plus_code": {"compound_code": "2RRR+J2 Hanoi, Ho\u00e0n Ki\u1ebfm, Hanoi, Vietnam", "global_code": "7PH72RRR+J2"}, "types": ["street_address"]}, {"address_components": [{"long_name": "38", "short_name": "38", "types": ["street_number"]}, {"long_name": "Linh Lang", "short_name": "Linh Lang", "types": ["route"]}, {"long_name": "Ba \u0110\u00ecnh", "short_name": "Ba \u0110\u00ecnh", "types": ["administrative_area_level_2", "political"]}, {"long_name": "H\u00e0 N\u1ed9i", "short_name": "H\u00e0 N\u1ed9i", "types": ["administrative_area_level_1", "political"]}, {"long_name": "Vietnam", "short_name": "VN", "types": ["country", "political"]}], "formatted_address": "38 Linh Lang, C\u1ed1ng V\u1ecb, Ba \u0110\u00ecnh, H\u00e0 N\u1ed9i, Vietnam", "geometry": {"location": {"lat": 21.0360361, "lng": 105.8104245}, "location_type": "ROOFTOP", "viewport": {"northeast": {"lat": 21.0373850802915, "lng": 105.8117734802915}, "southwest": {"lat": 21.0346871197085, "lng": 105.8090755197085}}}, "place_id": "ChIJjXs2lhSrNTERO1JbEjcdojg", "plus_code": {"compound_code": "2RP6+C5 Hanoi, Ho\u00e0n Ki\u1ebfm, Hanoi, Vietnam", "global_code": "7PH72RP6+C5"}, "types": ["convenience_store", "establishment", "food", "point_of_interest", "store"]}, {"address_components": [{"long_name": "29a", "short_name": "29a", "types": ["street_number"]}, {"long_name": "Nguy\u1ec5n C\u00f4ng Hoan", "short_name": "Nguy\u1ec5n C\u00f4ng Hoan", "types": ["route"]}, {"long_name": "Ba \u0110\u00ecnh", "short_name": "Ba \u0110\u00ecnh", "types": ["administrative_area_level_2", "political"]}, {"long_name": "H\u00e0 N\u1ed9i", "short_name": "H\u00e0 N\u1ed9i", "types": ["administrative_area_level_1", "political"]}, {"long_name": "Vietnam", "short_name": "VN", "types": ["country", "political"]}], "formatted_address": "29a Nguy\u1ec5n C\u00f4ng Hoan, Gi\u1ea3ng V\u00f5, Ba \u0110\u00ecnh, H\u00e0 N\u1ed9i, Vietnam", "geometry": {"location": {"lat": 21.0272468, "lng": 105.814508}, "location_type": "ROOFTOP", "viewport": {"northeast": {"lat": 21.0285957802915, "lng": 105.8158569802915}, "southwest": {"lat": 21.0258978197085, "lng": 105.8131590197085}}}, "place_id": "ChIJF5M2Ym6rNTERYMiqXf0YCHg", "plus_code": {"compound_code": "2RG7+VR Hanoi, Ho\u00e0n Ki\u1ebfm, Hanoi, Vietnam", "global_code": "7PH72RG7+VR"}, "types": ["street_address"]}, {"address_components": [{"long_name": "27", "short_name": "27", "types": ["street_number"]}, {"long_name": "Ph\u1ea1m H\u1ed3ng Th\u00e1i", "short_name": "Ph\u1ea1m H\u1ed3ng Th\u00e1i", "types": ["route"]}, {"long_name": "Ba \u0110\u00ecnh", "short_name": "Ba \u0110\u00ecnh", "types": ["administrative_area_level_2", "political"]}, {"long_name": "H\u00e0 N\u1ed9i", "short_name": "H\u00e0 N\u1ed9i", "types": ["administrative_area_level_1", "political"]}, {"long_name": "Vietnam", "short_name": "VN", "types": ["country", "political"]}], "formatted_address": "27 Ph\u1ea1m H\u1ed3ng Th\u00e1i, Tr\u00fac B\u1ea1ch, Ba \u0110\u00ecnh, H\u00e0 N\u1ed9i, Vietnam", "geometry": {"location": {"lat": 21.0436214, "lng": 105.844962}, "location_type": "ROOFTOP", "viewport": {"northeast": {"lat": 21.04497038029151, "lng": 105.8463109802915}, "southwest": {"lat": 21.0422724197085, "lng": 105.8436130197085}}}, "place_id": "ChIJ47MFl7CrNTER-dmNuMnkDm8", "plus_code": {"compound_code": "2RVV+CX Hanoi, Ho\u00e0n Ki\u1ebfm, Hanoi, Vietnam", "global_code": "7PH72RVV+CX"}, "types": ["street_address"]}], "time_window": [[0, 600000], [12600, 23400], [3600, 9000], [0, 10800], [10800, 21600], [3600, 9000], [7200, 18000], [5400, 16200], [1800, 12600]]}, "metadata": {"visualize": {"covered_point": [21.036345750000002, 105.8279087], "zoom_level": 13, "layout": {"width": "1400px", "height": "800px"}}}}