{"problem": {"depot": 0, "destination": [{"address_components": [{"long_name": "S\u1ed1 1", "short_name": "S\u1ed1 1", "types": ["street_number"]}, {"long_name": "\u0110\u01b0\u1eddng H\u1eefu Ngh\u1ecb", "short_name": "\u0110\u01b0\u1eddng H\u1eefu Ngh\u1ecb", "types": ["route"]}, {"long_name": "Th\u1ecb x\u00e3 T\u1eeb S\u01a1n", "short_name": "Tx. T\u1eeb S\u01a1n", "types": ["locality", "political"]}, {"long_name": "B\u1eafc Ninh", "short_name": "B\u1eafc Ninh", "types": ["administrative_area_level_1", "political"]}, {"long_name": "Vietnam", "short_name": "VN", "types": ["country", "political"]}], "formatted_address": "S\u1ed1 1 \u0110\u01b0\u1eddng H\u1eefu Ngh\u1ecb, Ph\u00f9 Ch\u1ea9n, T\u1eeb S\u01a1n, B\u1eafc Ninh, Vietnam", "geometry": {"location": {"lat": 21.0782946, "lng": 105.967074}, "location_type": "ROOFTOP", "viewport": {"northeast": {"lat": 21.0796435802915, "lng": 105.9684229802915}, "southwest": {"lat": 21.0769456197085, "lng": 105.9657250197085}}}, "place_id": "ChIJ6V7zeTWpNTERvCUI7JBMHG0", "plus_code": {"compound_code": "3XH8+8R T\u1eeb S\u01a1n, Bac Ninh Province, Vietnam", "global_code": "7PH73XH8+8R"}, "types": ["establishment", "point_of_interest"]}, {"address_components": [{"long_name": "F8 C11", "short_name": "F8 C11", "types": ["street_number"]}, {"long_name": "Gi\u1ea3ng V\u00f5", "short_name": "Gi\u1ea3ng V\u00f5", "types": ["route"]}, {"long_name": "Khu t\u1eadp th\u1ec3 Gi\u1ea3ng V\u00f5", "short_name": "Khu t\u1eadp th\u1ec3 Gi\u1ea3ng V\u00f5", "types": ["neighborhood", "political"]}, {"long_name": "Ba \u0110\u00ecnh", "short_name": "Ba \u0110\u00ecnh", "types": ["administrative_area_level_2", "political"]}, {"long_name": "H\u00e0 N\u1ed9i", "short_name": "H\u00e0 N\u1ed9i", "types": ["administrative_area_level_1", "political"]}, {"long_name": "Vietnam", "short_name": "VN", "types": ["country", "political"]}], "formatted_address": "F8 C11 Gi\u1ea3ng V\u00f5, Ba \u0110\u00ecnh, H\u00e0 N\u1ed9i, Vietnam", "geometry": {"location": {"lat": 21.027593, "lng": 105.82379}, "location_type": "ROOFTOP", "viewport": {"northeast": {"lat": 21.0289419802915, "lng": 105.8251389802915}, "southwest": {"lat": 21.0262440197085, "lng": 105.8224410197085}}}, "place_id": "ChIJ41QYA3SrNTERF11hkNleOgE", "plus_code": {"compound_code": "2RHF+2G Hanoi, Ho\u00e0n Ki\u1ebfm, Hanoi, Vietnam", "global_code": "7PH72RHF+2G"}, "types": ["street_address"]}, {"address_components": [{"long_name": "645", "short_name": "645", "types": ["street_number"]}, {"long_name": "Kim M\u00e3", "short_name": "Kim M\u00e3", "types": ["route"]}, {"long_name": "Ba \u0110\u00ecnh", "short_name": "Ba \u0110\u00ecnh", "types": ["administrative_area_level_2", "political"]}, {"long_name": "H\u00e0 N\u1ed9i", "short_name": "H\u00e0 N\u1ed9i", "types": ["administrative_area_level_1", "political"]}, {"long_name": "Vietnam", "short_name": "VN", "types": ["country", "political"]}], "formatted_address": "645 Kim M\u00e3, Ng\u1ecdc Kh\u00e1nh, Ba \u0110\u00ecnh, H\u00e0 N\u1ed9i, Vietnam", "geometry": {"location": {"lat": 21.0291783, "lng": 105.8073084}, "location_type": "ROOFTOP", "viewport": {"northeast": {"lat": 21.0305272802915, "lng": 105.8086573802915}, "southwest": {"lat": 21.0278293197085, "lng": 105.8059594197085}}}, "place_id": "ChIJZRq8NJirNTER1vb2bLo2byU", "plus_code": {"compound_code": "2RH4+MW Hanoi, Ho\u00e0n Ki\u1ebfm, Hanoi, Vietnam", "global_code": "7PH72RH4+MW"}, "types": ["establishment", "food", "point_of_interest", "restaurant"]}, {"address_components": [{"long_name": "Ng\u00f5 462 - B\u01b0\u1edfi", "short_name": "Ng\u00f5 462 - B\u01b0\u1edfi", "types": ["route"]}, {"long_name": "Khu t\u1eadp th\u1ec3 7.2 ha", "short_name": "Khu t\u1eadp th\u1ec3 7.2 ha", "types": ["neighborhood", "political"]}, {"long_name": "Ba \u0110\u00ecnh", "short_name": "Ba \u0110\u00ecnh", "types": ["administrative_area_level_2", "political"]}, {"long_name": "H\u00e0 N\u1ed9i", "short_name": "H\u00e0 N\u1ed9i", "types": ["administrative_area_level_1", "political"]}, {"long_name": "Vietnam", "short_name": "VN", "types": ["country", "political"]}], "formatted_address": "Ng\u00f5 462 - B\u01b0\u1edfi, V\u0129nh Ph\u00fa, Ba \u0110\u00ecnh, H\u00e0 N\u1ed9i, Vietnam", "geometry": {"bounds": {"northeast": {"lat": 21.0429069, "lng": 105.808558}, "southwest": {"lat": 21.0428683, "lng": 105.808257}}, "location": {"lat": 21.0428876, "lng": 105.8084075}, "location_type": "GEOMETRIC_CENTER", "viewport": {"northeast": {"lat": 21.0442365802915, "lng": 105.8097564802915}, "southwest": {"lat": 21.0415386197085, "lng": 105.8070585197085}}}, "place_id": "ChIJ_bG9-BarNTERLpKglzUI74w", "types": ["route"]}, {"address_components": [{"long_name": "575", "short_name": "575", "types": ["street_number"]}, {"long_name": "\u0110\u01b0\u1eddng La Th\u00e0nh", "short_name": "\u0110\u01b0\u1eddng La Th\u00e0nh", "types": ["route"]}, {"long_name": "Ba \u0110\u00ecnh", "short_name": "Ba \u0110\u00ecnh", "types": ["administrative_area_level_2", "political"]}, {"long_name": "H\u00e0 N\u1ed9i", "short_name": "H\u00e0 N\u1ed9i", "types": ["administrative_area_level_1", "political"]}, {"long_name": "Vietnam", "short_name": "VN", "types": ["country", "political"]}], "formatted_address": "575 \u0110\u01b0\u1eddng La Th\u00e0nh, Th\u00e0nh C\u00f4ng, Ba \u0110\u00ecnh, H\u00e0 N\u1ed9i, Vietnam", "geometry": {"location": {"lat": 21.0237555, "lng": 105.8171405}, "location_type": "ROOFTOP", "viewport": {"northeast": {"lat": 21.0251044802915, "lng": 105.8184894802915}, "southwest": {"lat": 21.0224065197085, "lng": 105.8157915197085}}}, "place_id": "ChIJec6332-rNTERHQ5gwuktOFQ", "plus_code": {"compound_code": "2RF8+GV Hanoi, Ho\u00e0n Ki\u1ebfm, Hanoi, Vietnam", "global_code": "7PH72RF8+GV"}, "types": ["street_address"]}, {"address_components": [{"long_name": "443", "short_name": "443", "types": ["street_number"]}, {"long_name": "\u0110\u1ed9i C\u1ea5n", "short_name": "\u0110\u1ed9i C\u1ea5n", "types": ["route"]}, {"long_name": "Ba \u0110\u00ecnh", "short_name": "Ba \u0110\u00ecnh", "types": ["administrative_area_level_2", "political"]}, {"long_name": "H\u00e0 N\u1ed9i", "short_name": "H\u00e0 N\u1ed9i", "types": ["administrative_area_level_1", "political"]}, {"long_name": "Vietnam", "short_name": "VN", "types": ["country", "political"]}], "formatted_address": "443 \u0110\u1ed9i C\u1ea5n, V\u0129nh Ph\u00fa, Ba \u0110\u00ecnh, H\u00e0 N\u1ed9i, Vietnam", "geometry": {"location": {"lat": 21.038003, "lng": 105.810641}, "location_type": "ROOFTOP", "viewport": {"northeast": {"lat": 21.0393519802915, "lng": 105.8119899802915}, "southwest": {"lat": 21.0366540197085, "lng": 105.8092920197085}}}, "place_id": "ChIJuRJQZRSrNTEReg0mQuqcRQ0", "plus_code": {"compound_code": "2RQ6+67 Hanoi, Ho\u00e0n Ki\u1ebfm, Hanoi, Vietnam", "global_code": "7PH72RQ6+67"}, "types": ["convenience_store", "establishment", "food", "point_of_interest", "store"]}, {"address_components": [{"long_name": "104", "short_name": "104", "types": ["street_number"]}, {"long_name": "Ng\u1ecdc H\u00e0", "short_name": "Ng\u1ecdc H\u00e0", "types": ["route"]}, {"long_name": "Ba \u0110\u00ecnh", "short_name": "Ba \u0110\u00ecnh", "types": ["administrative_area_level_2", "political"]}, {"long_name": "H\u00e0 N\u1ed9i", "short_name": "H\u00e0 N\u1ed9i", "types": ["administrative_area_level_1", "political"]}, {"long_name": "Vietnam", "short_name": "VN", "types": ["country", "political"]}], "formatted_address": "104 Ng\u1ecdc H\u00e0, Ng\u1ecdc H\u1ed3, Ba \u0110\u00ecnh, H\u00e0 N\u1ed9i, Vietnam", "geometry": {"location": {"lat": 21.037321, "lng": 105.830982}, "location_type": "ROOFTOP", "viewport": {"northeast": {"lat": 21.0386699802915, "lng": 105.8323309802915}, "southwest": {"lat": 21.0359720197085, "lng": 105.8296330197085}}}, "place_id": "ChIJIS5ExKCrNTERqUNqB0gLF04", "plus_code": {"compound_code": "2RPJ+W9 Hanoi, Ho\u00e0n Ki\u1ebfm, Hanoi, Vietnam", "global_code": "7PH72RPJ+W9"}, "types": ["street_address"]}, {"address_components": [{"long_name": "34", "short_name": "34", "types": ["street_number"]}, {"long_name": "Ng\u00f5 6 - V\u0129nh Ph\u00fac", "short_name": "Ng\u00f5 6 - V\u0129nh Ph\u00fac", "types": ["route"]}, {"long_name": "Ba \u0110\u00ecnh", "short_name": "Ba \u0110\u00ecnh", "types": ["administrative_area_level_2", "political"]}, {"long_name": "H\u00e0 N\u1ed9i", "short_name": "H\u00e0 N\u1ed9i", "types": ["administrative_area_level_1", "political"]}, {"long_name": "Vietnam", "short_name": "VN", "types": ["country", "political"]}], "formatted_address": "34 Ng\u00f5 6 - V\u0129nh Ph\u00fac, V\u0129nh Ph\u00fa, Ba \u0110\u00ecnh, H\u00e0 N\u1ed9i, Vietnam", "geometry": {"location": {"lat": 21.0443487, "lng": 105.8085488}, "location_type": "ROOFTOP", "viewport": {"northeast": {"lat": 21.0456976802915, "lng": 105.8098977802915}, "southwest": {"lat": 21.0429997197085, "lng": 105.8071998197085}}}, "place_id": "ChIJJQ3uCRerNTERRzkEJA6-Zm4", "plus_code": {"compound_code": "2RV5+PC Hanoi, Ho\u00e0n Ki\u1ebfm, Hanoi, Vietnam", "global_code": "7PH72RV5+PC"}, "types": ["street_address"]}, {"address_components": [{"long_name": "26b", "short_name": "26b", "types": ["street_number"]}, {"long_name": "Ho\u00e8 Nhai", "short_name": "Ho\u00e8 Nhai", "types": ["route"]}, {"long_name": "Ba \u0110\u00ecnh", "short_name": "Ba \u0110\u00ecnh", "types": ["administrative_area_level_2", "political"]}, {"long_name": "H\u00e0 N\u1ed9i", "short_name": "H\u00e0 N\u1ed9i", "types": ["administrative_area_level_1", "political"]}, {"long_name": "Vietnam", "short_name": "VN", "types": ["country", "political"]}], "formatted_address": "26b Ho\u00e8 Nhai, Nguy\u1ec5n Trung Tr\u1ef1c, Ba \u0110\u00ecnh, H\u00e0 N\u1ed9i, Vietnam", "geometry": {"location": {"lat": 21.041244, "lng": 105.8462903}, "location_type": "ROOFTOP", "viewport": {"northeast": {"lat": 21.0425929802915, "lng": 105.8476392802915}, "southwest": {"lat": 21.0398950197085, "lng": 105.8449413197085}}}, "place_id": "ChIJgXhMH7qrNTER1_4tgPga-U4", "plus_code": {"compound_code": "2RRW+FG Hanoi, Ho\u00e0n Ki\u1ebfm, Hanoi, Vietnam", "global_code": "7PH72RRW+FG"}, "types": ["street_address"]}, {"address_components": [{"long_name": "\u0110\u01b0\u1eddng B\u01b0\u1edfi", "short_name": "\u0110\u01b0\u1eddng B\u01b0\u1edfi", "types": ["route"]}, {"long_name": "Ba \u0110\u00ecnh", "short_name": "Ba \u0110\u00ecnh", "types": ["administrative_area_level_2", "political"]}, {"long_name": "H\u00e0 N\u1ed9i", "short_name": "H\u00e0 N\u1ed9i", "types": ["administrative_area_level_1", "political"]}, {"long_name": "Vietnam", "short_name": "VN", "types": ["country", "political"]}], "formatted_address": "s\u1ed1 14 ng\u00e1ch 254/1, \u0110\u01b0\u1eddng B\u01b0\u1edfi, C\u1ed1ng V\u1ecb, Ba \u0110\u00ecnh, H\u00e0 N\u1ed9i, Vietnam", "geometry": {"location": {"lat": 21.0366682, "lng": 105.8071707}, "location_type": "GEOMETRIC_CENTER", "viewport": {"northeast": {"lat": 21.0380171802915, "lng": 105.8085196802915}, "southwest": {"lat": 21.03531921970849, "lng": 105.8058217197085}}}, "place_id": "ChIJRWsMExWrNTERH9r30ifsqWM", "plus_code": {"compound_code": "2RP4+MV Hanoi, Ho\u00e0n Ki\u1ebfm, Hanoi, Vietnam", "global_code": "7PH72RP4+MV"}, "types": ["establishment", "point_of_interest", "store"]}, {"address_components": [{"long_name": "18B", "short_name": "18B", "types": ["street_number"]}, {"long_name": "Nguy\u1ec5n Bi\u1ec3u", "short_name": "Nguy\u1ec5n Bi\u1ec3u", "types": ["route"]}, {"long_name": "Ba \u0110\u00ecnh", "short_name": "Ba \u0110\u00ecnh", "types": ["administrative_area_level_2", "political"]}, {"long_name": "H\u00e0 N\u1ed9i", "short_name": "H\u00e0 N\u1ed9i", "types": ["administrative_area_level_1", "political"]}, {"long_name": "Vietnam", "short_name": "VN", "types": ["country", "political"]}], "formatted_address": "18B Nguy\u1ec5n Bi\u1ec3u, Qu\u00e1n Th\u00e1nh, Ba \u0110\u00ecnh, H\u00e0 N\u1ed9i, Vietnam", "geometry": {"location": {"lat": 21.0415455, "lng": 105.840011}, "location_type": "ROOFTOP", "viewport": {"northeast": {"lat": 21.0428944802915, "lng": 105.8413599802915}, "southwest": {"lat": 21.0401965197085, "lng": 105.8386620197085}}}, "place_id": "ChIJ32aEN6WrNTERlaJRR4KfrmA", "plus_code": {"compound_code": "2RRR+J2 Hanoi, Ho\u00e0n Ki\u1ebfm, Hanoi, Vietnam", "global_code": "7PH72RRR+J2"}, "types": ["street_address"]}, {"address_components": [{"long_name": "33", "short_name": "33", "types": ["street_number"]}, {"long_name": "T\u00e2n \u1ea4p", "short_name": "T\u00e2n \u1ea4p", "types": ["route"]}, {"long_name": "\u00c2\u0301p Tha\u0323nh Vinh", "short_name": "\u00c2\u0301p Tha\u0323nh Vinh", "types": ["neighborhood", "political"]}, {"long_name": "Ba \u0110\u00ecnh", "short_name": "Ba \u0110\u00ecnh", "types": ["administrative_area_level_2", "political"]}, {"long_name": "H\u00e0 N\u1ed9i", "short_name": "H\u00e0 N\u1ed9i", "types": ["administrative_area_level_1", "political"]}, {"long_name": "Vietnam", "short_name": "VN", "types": ["country", "political"]}], "formatted_address": "33 T\u00e2n \u1ea4p, Ph\u00fac x\u00e1, Ba \u0110\u00ecnh, H\u00e0 N\u1ed9i, Vietnam", "geometry": {"location": {"lat": 21.0460796, "lng": 105.8464855}, "location_type": "ROOFTOP", "viewport": {"northeast": {"lat": 21.0474285802915, "lng": 105.8478344802915}, "southwest": {"lat": 21.0447306197085, "lng": 105.8451365197085}}}, "place_id": "ChIJeS4ELbGrNTERVl_UCgmF63M", "plus_code": {"compound_code": "2RWW+CH Phuc Xa, Ba \u0110\u00ecnh, Hanoi, Vietnam", "global_code": "7PH72RWW+CH"}, "types": ["establishment", "point_of_interest"]}, {"address_components": [{"long_name": "27", "short_name": "27", "types": ["street_number"]}, {"long_name": "Ph\u1ea1m H\u1ed3ng Th\u00e1i", "short_name": "Ph\u1ea1m H\u1ed3ng Th\u00e1i", "types": ["route"]}, {"long_name": "Ba \u0110\u00ecnh", "short_name": "Ba \u0110\u00ecnh", "types": ["administrative_area_level_2", "political"]}, {"long_name": "H\u00e0 N\u1ed9i", "short_name": "H\u00e0 N\u1ed9i", "types": ["administrative_area_level_1", "political"]}, {"long_name": "Vietnam", "short_name": "VN", "types": ["country", "political"]}], "formatted_address": "27 Ph\u1ea1m H\u1ed3ng Th\u00e1i, Tr\u00fac B\u1ea1ch, Ba \u0110\u00ecnh, H\u00e0 N\u1ed9i, Vietnam", "geometry": {"location": {"lat": 21.0436214, "lng": 105.844962}, "location_type": "ROOFTOP", "viewport": {"northeast": {"lat": 21.04497038029151, "lng": 105.8463109802915}, "southwest": {"lat": 21.0422724197085, "lng": 105.8436130197085}}}, "place_id": "ChIJ47MFl7CrNTER-dmNuMnkDm8", "plus_code": {"compound_code": "2RVV+CX Hanoi, Ho\u00e0n Ki\u1ebfm, Hanoi, Vietnam", "global_code": "7PH72RVV+CX"}, "types": ["street_address"]}], "time_window": [[0, 600000], [0, 5400], [1800, 10800], [12600, 12600], [3600, 23400], [1800, 9000], [9000, 12600], [3600, 14400], [12600, 9000], [7200, 18000], [10800, 12600], [3600, 21600], [1800, 14400]]}, "metadata": {"visualize": {"covered_point": [21.036345750000002, 105.8279087], "zoom_level": 13, "layout": {"width": "1400px", "height": "800px"}}}}